[   
    {
        "id":"0003675434",
        "name":"Test Dealer",
        "address":"1090 E HOLT AVE",
        "address2":"",
        "city":"POMONA",
        "state":"CA",
        "postal":"91767-5721",
        "country":"US",
        "phone":"909 623 6000",
        "web":"https://www.facebook.com/4-Wheel-Unlimited-INC-198586366823651/",
        "category":"Automotive",
        "onmap":"no",
        "lat":"34.062487",
        "lng":"-117.729504"
    },
    {
        "id":"13",
        "name":"4 Wheel Unlimited, Inc.",
        "address":"1090 E HOLT AVE",
        "address2":"",
        "city":"POMONA",
        "state":"CA",
        "postal":"91767-5721",
        "country":"US",
        "phone":"909 623 6000",
        "web":"https://www.facebook.com/4-Wheel-Unlimited-INC-198586366823651/",
        "category":"Automotive",
        "onmap":"no",
        "lat":"34.062487",
        "lng":"-117.729504"
    },
    {
        "id":"44359992229999f",
        "name":"4 Wheel Unlimited, Inc.",
        "address":"1090 E HOLT AVE",
        "address2":"",
        "city":"POMONA",
        "state":"CA",
        "postal":"91767-5721",
        "country":"US",
        "phone":"909 623 6000",
        "web":"https://www.facebook.com/4-Wheel-Unlimited-INC-198586366823651/",
        "category":"Automotive",
        "onmap":"no",
        "lat":"34.062487",
        "lng":"-117.729504"
    },
    {
        "id":"43332223393",
        "name":"4 Wheel Unlimited, Inc.",
        "address":"1090 E HOLT AVE",
        "address2":"",
        "city":"POMONA",
        "state":"CA",
        "postal":"91767-5721",
        "country":"US",
        "phone":"909 623 6000",
        "web":"https://www.facebook.com/4-Wheel-Unlimited-INC-198586366823651/",
        "category":"Automotive",
        "onmap":"no",
        "lat":"34.062487",
        "lng":"-117.729504"
    },
    {
        "id":"443559222733333373",
        "name":"4 Wheel Unlimited, Inc.",
        "address":"1090 E HOLT AVE",
        "address2":"",
        "city":"POMONA",
        "state":"CA",
        "postal":"91767-5721",
        "country":"US",
        "phone":"909 623 6000",
        "web":"https://www.facebook.com/4-Wheel-Unlimited-INC-198586366823651/",
        "category":"Automotive",
        "onmap":"no",
        "lat":"34.062487",
        "lng":"-117.729504"
    }
]